     2.10           OBSERVATION DATA    G (GPS)             RINEX VERSION / TYPE
teqc  2002Mar14                         20040202 02:07:05UTCPGM / RUN BY / DATE
LOVO.0                                                      MARKER NAME
108638.0                                                    MARKER NUMBER
SWEPOS              LMV                                     OBSERVER / AGENCY
201                 ASHTECH UZ-12       UFB5                REC # / TYPE / VERS
486                 ASH700936D_M    OSOD                    ANT # / TYPE
  3104219.4530   998383.9820  5463290.5080                  APPROX POSITION XYZ
        0.0710        0.0000        0.0000                  ANTENNA: DELTA H/E/N
     1     1                                                WAVELENGTH FACT L1/2
     7    C1    L1    L2    P1    P2    D1    D2            # / TYPES OF OBSERV
    15.0000                                                 INTERVAL
Forced Modulo Decimation to 15 seconds                      COMMENT
  2004     2     2     1     0    0.0000000     GPS         TIME OF FIRST OBS
  2004     2     2     1    59   45.0000000     GPS         TIME OF LAST OBS
MSWin2000|IAx86-PII|bcc32 5.0|MSWin95/98/NT/2000|486/DX+    COMMENT
teqc  2002Mar14                         20040202 02:07:00UTCCOMMENT
IMoS GFileSrv 3.32  LMV                 02.02.2004          COMMENT
                                                            END OF HEADER
 04  2  2  1  0  0.0000000  0 12G24G13G 8G21G29G26G10G17G 2G28G 3G27
  25001257.939 3  -3240782.381 3  -2477390.27041  25001256.67943  25001263.55241
     -3326.175       -2591.814
  23106629.672 3 -12188598.444 3  -9438884.30442  23106630.26943  23106632.40442
     -3249.560       -2532.122
  20664230.640 4 -27083620.911 4 -21043552.60142  20664230.28544  20664233.24942
      1668.628        1300.232
  24835458.607 3  -1852700.687 3  -1409814.31741  24835459.14243  24835461.18641
      2256.893        1758.620
  23250718.908 3  -9408614.302 3  -7282391.67142  23250719.14843  23250721.22342
      3046.074        2373.562
  24278146.750 3  -2425988.004 3  -1834803.80441  24278147.40443  24278147.28641
      3719.047        2897.966
  21075047.746 4 -22766749.109 4 -17690390.38942  21075046.64344  21075050.17642
       107.458          83.738
  23040156.049 3 -12703575.980 3  -9875544.72442  23040156.09643  23040158.59142
     -2015.434       -1570.458
  25021426.334 3  -3642075.938 3  -2794521.62041  25021425.82543  25021430.11341
     -2570.057       -2002.638
  24944090.432 3   -516866.017 3   -356300.57841  24944089.65443  24944093.09541
      3702.248        2884.860
  24444981.849 3  -4367335.195 3  -3375771.73741  24444981.72543  24444985.50941
      1216.773         948.128
  20946851.223 4 -21723060.133 4 -16870512.80742  20946850.74844  20946853.61742
      -970.759        -756.424
 04  2  2  1  0 15.0000000  0 12G24G13G 8G21G29G26G10G17G 2G28G 3G27
  25010757.633 3  -3190865.636 3  -2438494.10141  25010759.38243  25010762.86941
     -3328.911       -2593.958
  23115909.944 3 -12139829.614 3  -9400882.63442  23115910.84143  23115911.78242
     -3252.759       -2534.667
  20659480.236 4 -27108585.937 4 -21063005.86742  20659479.73544  20659482.66842
      1660.202        1293.669
  24829027.469 3  -1886494.577 3  -1436147.20941  24829028.24543  24829028.86341
      2249.109        1752.538
  23242029.380 3  -9454282.302 3  -7317977.13642  23242029.55243  23242030.38842
      3043.425        2371.503
  24267532.533 3  -2481764.433 3  -1878265.97441  24267532.69743  24267532.80141
      3717.392        2896.659
  21074755.738 3 -22768282.363 3 -17691585.13642  21074755.03843  21074758.44242
        97.245          75.777
  23045922.805 3 -12673271.792 3  -9851931.09342  23045922.36343  23045925.72042
     -2024.376       -1577.426
  25028767.917 3  -3603491.226 3  -2764455.61041  25028767.47043  25028771.43541
     -2574.424       -2006.043
  24933523.806 3   -572390.756 3   -399566.60741  24933523.96343  24933527.22641
      3701.267        2884.110
  24441522.323 3  -4385521.899 3  -3389943.19341  24441522.27743  24441523.96241
      1208.485         941.697
  20949631.835 4 -21708447.286 4 -16859126.17042  20949631.65044  20949634.16942
      -977.584        -761.765
 04  2  2  1  0 30.0000000  0 12G24G13G 8G21G29G26G10G17G 2G28G 3G27
  25020262.282 3  -3140921.194 3  -2399576.36641  25020261.94143  25020267.44241
     -3331.541       -2595.996
  23125200.286 3 -12091009.370 3  -9362840.90542  23125201.40243  23125204.00342
     -3256.907       -2537.829
  20654752.933 4 -27133426.369 4 -21082362.04742  20654752.90844  20654755.58642
      1651.365        1286.769
  24822619.150 3  -1920171.877 3  -1462389.24841  24822620.48443  24822621.61741
      2241.053        1746.279
  23233347.396 3  -9499906.832 3  -7353528.72442  23233347.12943  23233349.83542
      3039.714        2368.611
  24256923.567 3  -2537513.665 3  -1921706.95341  24256923.83243  24256925.25241
      3715.219        2894.966
  21074493.113 4 -22769662.216 4 -17692660.35142  21074492.54144  21074495.86742
        86.393          67.318
  23051715.012 3 -12642840.507 3  -9828218.41242  23051714.24843  23051716.11042
     -2033.679       -1584.697
  25036122.521 3  -3564838.243 3  -2734336.40041  25036121.82743  25036126.64141
     -2579.597       -2010.085
  24922961.192 3   -627902.865 3   -442822.79341  24922960.82743  24922963.95841
      3699.987        2883.100
  24438086.806 3  -4403576.324 3  -3404011.57241  24438086.85243  24438088.96841
      1198.556         933.946
  20952431.951 4 -21693731.512 4 -16847659.33342  20952431.86044  20952434.54342
      -984.984        -767.522
 04  2  2  1  0 45.0000000  0 12G24G13G 8G21G29G26G10G17G 2G28G 3G27
  25029772.483 3  -3090949.710 3  -2360637.56441  25029770.74843  25029777.61541
     -3332.098       -2596.442
  23134500.882 3 -12042137.938 3  -9324759.27342  23134501.63643  23134503.31442
     -3259.768       -2540.086
  20650049.815 4 -27158142.159 4 -21101621.09942  20650049.49944  20650052.42142
      1643.692        1280.779
  24816232.577 3  -1953732.282 3  -1488540.16041  24816232.77943  24816235.28041
      2233.784        1740.603
  23224673.239 3  -9545487.698 3  -7389046.28342  23224673.53943  23224675.84142
      3037.328        2366.746
  24246320.177 3  -2593235.705 3  -1965126.71741  24246319.87743  24246324.34441
      3714.073        2894.075
  21074259.873 4 -22770888.683 4 -17693616.04242  21074259.28444  21074262.71142
        76.803          59.837
  23057529.815 3 -12612282.235 3  -9804406.77042  23057528.72243  23057531.89242
     -2041.446       -1590.734
  25043491.119 3  -3526117.272 3  -2704164.23341  25043489.87843  25043496.83041
     -2583.702       -2013.271
  24912400.059 3   -683402.146 3   -486068.96941  24912399.72043  24912401.77241
      3699.801        2882.964
  24434675.652 3  -4421498.424 3  -3417976.86241  24434675.99243  24434678.16541
      1190.403         927.583
  20955252.061 4 -21678912.846 4 -16836112.31642  20955251.86344  20955254.61442
      -991.328        -772.478
 04  2  2  1  1  0.0000000  0 12G24G13G 8G21G29G26G10G17G 2G28G 3G27
  25039286.117 3  -3040951.145 3  -2321677.66341  25039282.94643  25039288.38241
     -3334.426       -2598.247
  23143809.941 3 -11993215.459 3  -9286637.86842  23143811.05743  23143813.67742
     -3263.349       -2542.871
  20645370.274 4 -27182733.040 4 -21120782.81842  20645369.91844  20645372.83942
      1635.228        1274.206
  24809869.951 3  -1987175.496 3  -1514599.77841  24809871.09543  24809871.00041
      2225.235        1733.938
  23216007.086 3  -9591024.649 3  -7424529.62942  23216007.29243  23216010.31742
      3034.228        2364.319
  24235721.967 3  -2648930.198 3  -2008525.01041  24235721.56943  24235724.70041
      3712.042        2892.495
  21074055.943 4 -22771961.617 4 -17694452.09942  21074055.33044  21074058.59242
        66.245          51.615
  23063369.266 3 -12581597.265 3  -9780496.40142  23063369.00943  23063371.52342
     -2050.033       -1597.437
  25050870.739 3  -3487328.358 3  -2673939.13141  25050872.22643  25050876.68041
     -2588.281       -2016.850
  24901840.531 3   -738888.083 3   -529304.77841  24901839.95543  24901843.24341
      3698.446        2881.900
  24431291.200 3  -4439287.848 3  -3431838.77141  24431290.69843  24431293.90141
      1181.466         920.623
  20958091.327 4 -21663991.390 4 -16824485.20342  20958091.34244  20958094.10142
      -998.305        -777.894
 04  2  2  1  1 15.0000000  0 12G24G13G 8G21G29G26G10G17G 2G28G 3G27
  25048804.922 3  -2990926.137 3  -2282697.15341  25048803.70043  25048810.07741
     -3335.771       -2599.309
  23153129.253 3 -11944242.226 3  -9248476.91042  23153129.96143  23153132.05242
     -3267.022       -2545.763
  20640714.894 4 -27207198.982 4 -21139847.18142  20640714.30544  20640717.11142
      1626.473        1267.369
  24803527.597 3  -2020501.240 3  -1540567.91041  24803527.91843  24803528.03841
      2217.171        1727.670
  23207351.224 3  -9636517.511 3  -7459978.60042  23207351.26043  23207353.88042
      3030.895        2361.726
  24225128.746 3  -2704596.932 3  -2051901.68641  24225129.91143  24225131.77141
      3709.803        2890.764
  21073880.896 4 -22772881.081 4 -17695168.57142  21073880.22744  21073883.38042
        55.756          43.431
  23069232.416 3 -12550786.057 3  -9756487.67042  23069231.39643  23069234.86242
     -2058.879       -1604.339
  25058265.204 3  -3448471.883 3  -2643661.38941  25058267.10743  25058270.13941
     -2593.335       -2020.788
  24891285.597 3   -794360.528 3   -572530.05941  24891284.61443  24891287.20841
      3697.113        2880.860
  24427931.372 3  -4456944.480 3  -3445597.21241  24427931.14043  24427934.55641
      1172.070         913.293
  20960950.183 4 -21648967.264 4 -16812778.09042  20960950.00844  20960952.91842
     -1005.502        -783.518
 04  2  2  1  1 30.0000000  0 12G24G13G 8G21G29G26G10G17G 2G28G 3G27
  25058328.606 3  -2940874.857 3  -2243696.18741  25058331.69743  25058335.84441
     -3337.278       -2600.456
  23162458.312 3 -11895218.256 3  -9210276.43142  23162458.44243  23162459.61142
     -3270.012       -2548.082
  20636083.006 4 -27231539.632 4 -21158813.91342  20636082.58544  20636085.50342
      1618.456        1261.129
  24797207.905 3  -2053709.318 3  -1566444.34941  24797209.31143  24797209.81941
      2209.775        1721.908
  23198702.236 3  -9681966.037 3  -7495393.02442  23198702.70543  23198704.98042
      3028.511        2359.874
  24214540.408 3  -2760235.590 3  -2095256.47541  24214541.18243  24214543.10841
      3708.189        2889.504
  21073735.125 4 -22773646.885 4 -17695765.30642  21073734.48544  21073737.57542
        45.982          35.825
  23075120.225 3 -12519848.646 3  -9732380.61242  23075119.92243  23075123.36642
     -2066.924       -1610.588
  25065674.342 3  -3409548.037 3  -2613331.15641  25065674.29243  25065677.22341
     -2596.970       -2023.602
  24880731.616 3   -849819.182 3   -615744.60641  24880729.57443  24880732.38941
      3696.799        2880.623
  24424596.005 3  -4474467.982 3  -3459251.89441  24424596.43043  24424599.77741
      1163.737         906.803
  20963828.772 4 -21633840.610 4 -16800991.08242  20963828.84844  20963831.49942
     -1011.911        -788.507
 04  2  2  1  1 45.0000000  0 12G24G13G 8G21G29G26G10G17G 2G28G 3G27
  25067858.929 3  -2890797.811 3  -2204675.16441  25067856.10243  25067866.26141
     -3339.319       -2602.067
  23171797.047 3 -11846143.818 3  -9172036.61642  23171796.00043  23171798.39742
     -3273.184       -2550.534
  20631474.812 4 -27255755.074 4 -21177683.07742  20631474.49344  20631477.13142
      1610.367        1254.828
  24790911.018 3  -2086799.367 3  -1592228.82741  24790910.67543  24790914.65341
      2202.112        1715.937
  23190062.501 3  -9727370.278 3  -7530772.96342  23190062.48743  23190063.90642
      3025.669        2357.675
  24203958.483 3  -2815846.121 3  -2138589.35241  24203959.38443  24203960.28241
      3706.855        2888.458
  21073618.558 4 -22774259.121 4 -17696242.38042  21073617.94144  21073620.98642
        35.879          27.963
  23081031.296 3 -12488785.629 3  -9708175.69042  23081030.82543  23081034.43642
     -2074.804       -1616.728
  25073094.596 3  -3370557.209 3  -2582948.71541  25073093.28143  25073096.35241
     -2601.351       -2027.033
  24870180.409 3   -905263.804 3   -658948.21741  24870180.06643  24870182.71341
      3696.198        2880.154
  24421286.658 3  -4491858.285 3  -3472802.78941  24421287.63643  24421290.05141
      1155.082         900.061
  20966726.815 4 -21618611.632 4 -16789124.34542  20966726.70344  20966729.49642
     -1018.474        -793.615
 04  2  2  1  2  0.0000000  0 12G24G13G 8G21G29G26G10G17G 2G28G 3G27
  25077392.652 3  -2840695.161 3  -2165634.16341  25077392.61443  25077397.60241
     -3341.243       -2603.602
  23181144.528 3 -11797019.044 3  -9133757.58542  23181145.50143  23181146.73442
     -3276.476       -2553.100
  20626890.508 4 -27279845.202 4 -21196454.59342  20626889.93444  20626892.99142
      1602.031        1248.337
  24784637.361 3  -2119770.892 3  -1617920.93741  24784636.70043  24784637.81241
      2194.442        1709.946
  23181430.329 3  -9772729.880 3  -7566118.10742  23181430.09743  23181432.87942
      3022.592        2355.262
  24193382.209 3  -2871428.240 3  -2181900.08541  24193383.09143  24193385.02141
      3704.749        2886.816
  21073531.521 4 -22774717.562 4 -17696599.60942  21073530.84944  21073533.80142
        25.695          20.026
  23086965.138 3 -12457597.215 3  -9683873.05142  23086964.67543  23086968.60142
     -2083.088       -1623.180
  25080527.104 3  -3331499.569 3  -2552514.18341  25080526.31343  25080530.18141
     -2606.057       -2030.690
  24859632.004 3   -960693.883 3   -702140.48041  24859632.57643  24859635.15741
      3695.138        2879.319
  24418003.773 3  -4509115.067 3  -3486249.64741  24418004.11343  24418006.69241
      1146.241         893.184
  20969644.634 4 -21603280.198 4 -16777177.77442  20969644.27744  20969646.66042
     -1025.288        -798.932
 04  2  2  1  2 15.0000000  0 12G24G13G 8G21G29G26G10G17G 2G28G 3G27
  25086931.692 3  -2790567.354 3  -2126573.55841  25086933.22243  25086938.27341
     -3343.086       -2605.025
  23190502.396 3 -11747844.071 3  -9095439.42242  23190502.92543  23190505.28542
     -3280.134       -2555.938
  20622330.383 4 -27303809.717 4 -21215128.23542  20622329.80244  20622332.77842
      1593.462        1241.660
  24778386.099 3  -2152623.763 3  -1643520.62341  24778385.08143  24778386.11141
      2186.742        1703.958
  23172806.982 3  -9818044.785 3  -7601428.42242  23172807.33143  23172810.17942
      3019.499        2352.864
  24182811.327 3  -2926981.806 3  -2225188.57341  24182810.86143  24182813.65041
      3702.645        2885.182
  21073473.358 4 -22775022.304 4 -17696837.07942  21073472.91944  21073475.65842
        15.151          11.807
  23092923.792 3 -12426283.686 3  -9659472.92842  23092923.90143  23092927.32542
     -2091.850       -1630.008
  25087971.801 3  -3292375.397 3  -2522027.82241  25087971.05343  25087973.90041
     -2610.456       -2034.128
  24849087.460 3  -1016109.188 3   -745321.24541  24849086.21543  24849090.70441
      3693.318        2877.902
  24414744.885 3  -4526238.266 3  -3499592.43941  24414744.24743  24414747.03041
      1137.012         885.982
  20972581.381 4 -21587846.622 4 -16765151.60742  20972581.34544  20972583.47042
     -1032.329        -804.416
 04  2  2  1  2 30.0000000  0 12G24G13G 8G21G29G26G10G17G 2G28G 3G27
  25096474.694 2  -2740414.884 2  -2087493.73641  25096476.74142  25096484.48841
     -3343.080       -2604.986
  23199869.797 3 -11698619.191 3  -9057082.38242  23199869.85243  23199872.04742
     -3282.427       -2557.752
  20617793.806 4 -27327648.686 4 -21233704.04942  20617793.57144  20617796.46742
      1586.010        1235.859
  24772156.396 3  -2185357.933 3  -1669027.75441  24772156.13443  24772158.73741
      2179.133        1698.037
  23164192.724 3  -9863314.749 3  -7636703.71742  23164192.95843  23164195.56142
      3017.331        2351.177
  24172244.053 3  -2982506.736 3  -2268454.73241  24172244.61043  24172246.74741
      3701.645        2884.403
  21073444.931 4 -22775173.360 4 -17696954.78442  21073444.07744  21073446.90442
         5.915           4.610
  23098907.180 3 -12394845.411 3  -9634975.59742  23098906.88243  23098910.80742
     -2099.142       -1635.695
  25095429.681 3  -3253184.938 3  -2491489.81241  25095429.06443  25095432.18741
     -2614.099       -2036.970
  24838545.031 3  -1071509.446 3   -788490.28541  24838544.39543  24838546.77541
      3693.861        2878.328
  24411512.367 3  -4543227.654 3  -3512830.91941  24411512.21543  24411513.94741
      1128.849         879.625
  20975537.552 4 -21572311.049 4 -16753045.96442  20975537.62244  20975540.15542
     -1038.218        -809.001
 04  2  2  1  2 45.0000000  0 12G24G13G 8G21G29G26G10G17G 2G28G 3G27
  25106024.265 2  -2690237.810 2  -2048394.77141  25106028.04442  25106030.18141
     -3345.905       -2607.197
  23209247.050 3 -11649344.419 3  -9018686.46542  23209247.03343  23209248.33742
     -3286.610       -2560.984
  20613281.152 4 -27351361.818 4 -21252181.80542  20613280.74444  20613283.86042
      1576.667        1228.564
  24765950.310 3  -2217972.858 3  -1694441.95341  24765950.60943  24765953.98841
      2170.523        1691.327
  23155586.722 3  -9908539.555 3  -7671943.83342  23155586.64043  23155588.81742
      3013.578        2348.251
  24161684.386 3  -3038002.506 3  -2311698.18341  24161684.82543  24161685.80741
      3698.831        2882.217
  21073445.570 4 -22775170.633 4 -17696952.66142  21073444.70644  21073447.66942
        -5.287          -4.115
  23104913.456 3 -12363282.624 3  -9610381.23242  23104913.08443  23104917.15642
     -2108.296       -1642.833
  25102899.693 3  -3213928.393 3  -2460900.29441  25102898.33143  25102902.24541
     -2619.450       -2041.128
  24828005.324 3  -1126894.274 3   -831647.30341  24828006.14743  24828009.26541
      3692.122        2876.977
  24408305.615 3  -4560082.952 3  -3525964.91041  24408305.01643  24408308.78841
      1119.314         872.194
  20978513.665 4 -21556673.472 4 -16740860.84042  20978513.66344  20978515.75542
     -1045.929        -815.005
 04  2  2  1  3  0.0000000  0 12G24G13G 8G21G29G26G10G17G 2G28G 3G27
  25115576.431 2  -2640036.739 2  -2009277.09541  25115578.83142  25115582.82641
     -3347.746       -2608.652
  23218633.127 3 -11600020.142 3  -8980251.97142  23218632.82043  23218634.71942
     -3289.835       -2563.525
  20608792.738 4 -27374949.073 4 -21270561.47242  20608792.67444  20608795.44142
      1568.407        1222.136
  24759766.517 3  -2250468.426 3  -1719763.16741  24759766.67943  24759768.41041
      2162.691        1685.228
  23146989.639 3  -9953718.991 3  -7707148.59442  23146988.78943  23146990.78342
      3010.433        2345.801
  24151129.746 3  -3093469.063 3  -2354918.89541  24151129.00643  24151131.07341
      3696.841        2880.660
  21073475.169 4 -22775014.139 4 -17696830.72142  21073474.63644  21073477.43442
       -15.414         -12.012
  23110943.067 3 -12331595.617 3  -9585690.07342  23110941.51843  23110946.33342
     -2116.686       -1649.360
  25110382.484 3  -3174606.036 3  -2430259.50541  25110381.99243  25110385.70041
     -2623.667       -2044.415
  24817468.836 3  -1182263.401 3   -874792.08741  24817469.61343  24817473.14441
      3690.616        2875.806
  24405122.486 3  -4576804.070 3  -3538994.35941  24405122.32843  24405124.53341
      1110.512         865.330
  20981508.628 4 -21540934.020 4 -16728596.33042  20981508.34544  20981511.01442
     -1052.542        -820.165
 04  2  2  1  3 15.0000000  0 12G24G13G 8G21G29G26G10G17G 2G28G 3G27
  25125135.198 2  -2589812.068 2  -1970140.99941  25125133.89542  25125139.83141
     -3349.631       -2610.115
  23228028.445 3 -11550646.457 3  -8941778.98942  23228028.50243  23228029.99342
     -3293.268       -2566.174
  20604328.521 4 -27398410.429 4 -21288843.04042  20604327.85844  20604330.68142
      1559.832        1215.449
  24753606.385 3  -2282844.218 3  -1744991.08341  24753607.22143  24753608.04741
      2154.328        1678.700
  23138400.822 3  -9998853.012 3  -7742317.96842  23138400.91843  23138402.62642
      3007.367        2343.425
  24140579.994 3  -3148906.398 3  -2398116.82841  24140579.77043  24140581.49041
      3694.674        2878.975
  21073534.299 4 -22774703.948 4 -17696589.01442  21073533.53544  21073536.39442
       -25.829         -20.127
  23116996.476 3 -12299784.834 3  -9560902.45342  23116995.66543  23116999.44142
     -2124.759       -1655.656
  25117877.522 3  -3135218.208 3  -2399567.71141  25117876.81343  25117881.05441
     -2627.853       -2047.677
  24806935.600 3  -1237616.578 3   -917924.42541  24806935.41143  24806939.44141
      3689.681        2875.088
  24401966.638 3  -4593390.813 3  -3551919.10041  24401965.32843  24401968.64741
      1101.030         857.936
  20984523.102 4 -21525092.979 4 -16716252.66242  20984522.98644  20984525.47742
     -1059.565        -825.641
 04  2  2  1  3 30.0000000  0 12G24G13G 8G21G29G26G10G17G 2G28G 3G27
  25134698.568 3  -2539564.061 3  -1930986.72341  25134695.93143  25134703.17341
     -3350.711       -2610.929
  23237433.567 3 -11501223.629 3  -8903267.71742  23237433.40343  23237435.79042
     -3296.446       -2568.646
  20599887.833 4 -27421745.589 4 -21307026.27242  20599887.62744  20599890.14642
      1551.413        1208.886
  24747468.218 3  -2315099.881 3  -1770125.39641  24747468.20543  24747469.05441
      2146.277        1672.421
  23129820.728 3 -10043941.304 3  -7777451.71242  23129820.28443  23129822.73342
      3004.250        2340.974
  24130035.981 3  -3204314.047 3  -2441291.63641  24130036.28743  24130037.95741
      3692.535        2877.305
  21073622.358 4 -22774239.799 4 -17696227.34042  21073621.75844  21073624.78042
       -36.174         -28.186
  23123073.491 3 -12267850.508 3  -9536018.56142  23123072.63243  23123076.38342
     -2133.170       -1662.207
  25125384.057 3  -3095765.049 3  -2368824.99841  25125384.97443  25125388.34041
     -2632.441       -2051.247
  24796406.004 3  -1292953.398 3   -961044.01641  24796406.06343  24796409.20141
      3688.797        2874.383
  24398834.574 3  -4609842.930 3  -3564738.94341  24398835.34543  24398837.30641
      1092.132         851.012
  20987556.559 4 -21509150.339 4 -16703829.82442  20987556.48544  20987559.24242
     -1066.310        -830.887
 04  2  2  1  3 45.0000000  0 12G24G13G 8G21G29G26G10G17G 2G28G 3G27
  25144265.114 3  -2489293.074 3  -1891814.54341  25144263.99443  25144268.41641
     -3352.331       -2612.194
  23246847.307 3 -11451751.627 3  -8864718.11542  23246847.17543  23246849.15042
     -3299.730       -2571.245
  20595471.332 4 -27444954.548 4 -21325111.16942  20595470.87944  20595473.78542
      1543.154        1202.470
  24741352.611 3  -2347235.253 3  -1795165.94041  24741351.28943  24741353.11141
      2138.248        1666.174
  23121250.359 3 -10088983.854 3  -7812549.80442  23121250.27643  23121251.93842
      3001.317        2338.701
  24119497.680 3  -3259691.979 3  -2484443.28541  24119498.27943  24119498.49341
      3690.986        2876.097
  21073740.226 4 -22773621.697 4 -17695745.70542  21073739.30244  21073742.32642
       -46.178         -35.971
  23129172.749 3 -12235793.087 3  -9511038.77642  23129173.18843  23129176.24942
     -2141.462       -1668.660
  25132905.117 3  -3056246.889 3  -2338031.63141  25132904.68843  25132907.70241
     -2636.382       -2054.330
  24785878.895 3  -1348273.681 3  -1004150.74141  24785878.53543  24785881.81741
      3687.713        2873.547
  24395729.536 3  -4626160.256 3  -3577453.73241  24395730.34943  24395734.03241
      1083.426         844.220
  20990609.547 4 -21493106.322 4 -16691327.99042  20990609.50644  20990612.47842
     -1072.997        -836.092
 04  2  2  1  4  0.0000000  0 12G24G13G 8G21G29G26G10G17G 2G28G 3G27
  25153834.674 3  -2438999.252 3  -1852624.57341  25153831.99843  25153836.51141
     -3353.420       -2613.011
  23256270.579 3 -11402230.618 3  -8826130.32442  23256271.31543  23256271.35942
     -3303.081       -2573.838
  20591078.648 4 -27468037.005 4 -21343097.48842  20591078.32844  20591081.25642
      1534.546        1195.754
  24735257.922 3  -2379250.083 3  -1820112.55441  24735258.67943  24735261.76341
      2130.045        1659.773
  23112687.312 3 -10133980.231 3  -7847611.92242  23112687.47943  23112688.90642
      2998.073        2336.159
  24108964.617 3  -3315039.802 3  -2527571.46741  24108964.85943  24108966.85441
      3689.119        2874.643
  21073886.666 4 -22772849.488 4 -17695143.99142  21073886.20644  21073889.06842
       -56.721         -44.198
  23135296.639 3 -12203612.752 3  -9485963.22042  23135296.95843  23135298.63242
     -2149.544       -1674.975
  25140436.956 3  -3016663.866 3  -2307187.72241  25140438.63043  25140439.63041
     -2641.151       -2058.038
  24775355.257 3  -1403576.967 3  -1047244.20541  24775353.69443  24775358.08341
      3686.284        2872.425
  24392652.056 3  -4642342.492 3  -3590063.26341  24392650.91943  24392653.33241
      1074.202         837.053
  20993682.177 4 -21476960.885 4 -16678747.13042  20993681.83444  20993684.57642
     -1079.805        -841.406
 04  2  2  1  4 15.0000000  0 12G24G13G 8G21G29G26G10G17G 2G28G 3G27
  25163408.712 2  -2388683.025 2  -1813417.14641  25163406.94042  25163410.08241
     -3354.548       -2613.930
  23265703.057 3 -11352660.792 3  -8787504.49642  23265703.08643  23265706.40142
     -3306.437       -2576.456
  20586710.394 4 -27490992.908 4 -21360985.19742  20586710.21944  20586712.53142
      1525.950        1189.062
  24729191.206 3  -2411143.924 3  -1844964.89241  24729190.03343  24729191.04041
      2122.194        1653.660
  23104132.741 3 -10178930.435 3  -7882638.05742  23104132.80143  23104135.35442
      2994.832        2333.646
  24098437.834 3  -3370357.496 3  -2570676.18041  24098439.26443  24098440.80741
      3686.943        2872.951
  21074063.354 4 -22771923.388 4 -17694422.35842  21074062.61544  21074065.58242
       -67.074         -52.249
  23141443.759 3 -12171309.789 3  -9460792.11042  23141443.86343  23141446.05942
     -2157.622       -1681.258
  25147982.147 3  -2977016.317 3  -2276293.55441  25147982.14643  25147986.43941
     -2645.592       -2061.509
  24764833.627 3  -1458863.037 3  -1090324.25141  24764834.82143  24764836.54141
      3685.367        2871.720
  24389597.360 3  -4658389.648 3  -3602567.55041  24389596.92243  24389599.59041
      1065.053         829.906
  20996773.392 4 -21460714.244 4 -16666087.40942  20996773.65244  20996776.22042
     -1086.584        -846.690
 04  2  2  1  4 30.0000000  0 11G13G 8G21G29G26G10G17G 2G28G 3G27
  23275145.308 3 -11303042.292 3  -8748840.74342  23275145.88343  23275149.21642
     -3309.556       -2578.866
  20582366.196 4 -27513822.292 4 -21378774.32342  20582365.87344  20582368.42642
      1517.825        1182.718
  24723145.022 3  -2442916.654 3  -1869722.83141  24723144.86443  24723145.83041
      2114.190        1647.414
  23095588.042 3 -10223834.276 3  -7917628.06042  23095588.07543  23095591.43542
      2992.014        2331.438
  24087917.529 3  -3425644.695 3  -2613757.11441  24087918.02443  24087918.76841
      3684.910        2871.357
  21074268.977 4 -22770843.337 4 -17693580.76242  21074268.03344  21074271.31942
       -77.072         -60.055
  23147614.686 3 -12138884.585 3  -9435525.72642  23147613.47643  23147617.68242
     -2165.614       -1687.494
  25155539.090 3  -2937304.495 3  -2245349.28741  25155537.83543  25155542.71741
     -2649.523       -2064.558
  24754315.879 3  -1514131.508 3  -1133390.57741  24754315.94143  24754318.87341
      3683.981        2870.634
  24386568.622 3  -4674301.565 3  -3614966.44341  24386569.97843  24386573.36041
      1056.116         822.947
  20999884.960 4 -21444366.439 4 -16653348.86042  20999884.51444  20999887.09142
     -1093.198        -851.844
 04  2  2  1  4 45.0000000  0 11G13G 8G21G29G26G10G17G 2G28G 3G27
  23284596.542 3 -11253375.451 3  -8710139.31342  23284597.72943  23284598.89442
     -3312.715       -2581.329
  20578045.970 4 -27536524.959 4 -21396464.70442  20578045.47744  20578048.15642
      1509.272        1176.043
  24717123.758 3  -2474567.952 3  -1894386.19541  24717122.09443  24717123.16741
      2106.188        1641.205
  23087052.256 3 -10268691.650 3  -7952581.86042  23087052.27243  23087054.13042
      2989.018        2329.099
  24077402.430 3  -3480901.303 3  -2656814.18641  24077403.03243  24077404.54441
      3682.842        2869.748
  21074503.249 4 -22769609.433 4 -17692619.28142  21074502.48444  21074505.98542
       -87.294         -68.024
  23153807.899 3 -12106337.518 3  -9410164.38342  23153807.73643  23153811.01442
     -2173.835       -1693.889
  25163108.568 3  -2897528.659 3  -2214355.13541  25163109.30543  25163111.73441
     -2653.808       -2067.912
  24743802.453 3  -1569382.168 3  -1176443.03541  24743802.63643  24743805.09341
      3682.595        2869.549
  24383566.869 3  -4690077.999 3  -3627259.77941  24383566.72943  24383569.35041
      1047.464         816.207
  21003014.988 4 -21427917.751 4 -16640531.70042  21003014.78044  21003017.15842
     -1099.989        -857.150
 04  2  2  1  5  0.0000000  0 11G13G 8G21G29G26G10G17G 2G28G 3G27
  23294056.864 3 -11203660.406 3  -8671400.32542  23294057.65443  23294059.91742
     -3316.195       -2584.050
  20573749.754 4 -27559100.707 4 -21414056.18542  20573749.41744  20573752.15042
      1500.567        1169.255
  24711121.062 3  -2506097.606 3  -1918954.77641  24711120.53243  24711123.45041
      2097.696        1634.566
  23078525.492 3 -10313502.196 3  -7987499.17342  23078526.10443  23078528.09142
      2985.475        2326.319
  24066893.443 3  -3536126.979 3  -2699847.16441  24066894.01943  24066896.49141
      3680.592        2867.984
  21074767.556 4 -22768221.527 4 -17691537.79342  21074766.78244  21074770.10842
       -97.973         -76.354
  23160024.549 3 -12073668.870 3  -9384708.30242  23160024.62743  23160026.17242
     -2182.477       -1700.639
  25170690.066 3  -2857689.014 3  -2183311.26941  25170690.98043  25170692.68741
     -2658.438       -2071.507
  24733291.599 3  -1624614.659 3  -1219481.31741  24733291.45843  24733293.86741
      3681.302        2868.548
  24380590.878 3  -4705718.663 3  -3639447.31241  24380590.39943  24380593.24941
      1037.774         808.666
  21006164.035 4 -21411368.192 4 -16627635.94242  21006163.90744  21006166.20542
     -1106.882        -862.511
 04  2  2  1  5 15.0000000  0 11G13G 8G21G29G26G10G17G 2G28G 3G27
  23303527.086 3 -11153897.446 3  -8632624.00442  23303527.56643  23303528.14342
     -3319.337       -2586.506
  20569477.892 4 -27581549.520 4 -21431548.76142  20569477.79444  20569480.32342
      1492.105        1162.692
  24705145.596 3  -2537505.405 3  -1943428.40341  24705144.53943  24705145.49941
      2089.410        1628.117
  23070006.951 3 -10358265.759 3  -8022379.87942  23070007.96443  23070009.48742
      2982.463        2324.012
  24056390.420 3  -3591321.746 3  -2742856.06441  24056390.91943  24056394.05241
      3678.361        2866.261
  21075061.067 4 -22766679.697 4 -17690336.37042  21075060.44744  21075063.66342
      -108.264         -84.349
  23166263.829 3 -12040878.998 3  -9359157.75742  23166264.73143  23166265.74242
     -2190.177       -1706.619
  25178283.704 3  -2817785.881 3  -2152217.91741  25178282.30743  25178285.88541
     -2662.690       -2074.822
  24722785.037 3  -1679828.722 3  -1262505.24441  24722785.42143  24722788.10341
      3679.952        2867.504
  24377640.199 3  -4721223.424 3  -3651528.96641  24377640.50343  24377642.38241
      1028.816         801.678
  21009332.758 4 -21394717.974 4 -16614661.74242  21009332.43244  21009334.95842
     -1113.582        -867.716
 04  2  2  1  5 30.0000000  0 11G13G 8G21G29G26G10G17G 2G28G 3G27
  23313005.939 3 -11104086.600 3  -8593810.37642  23313006.26643  23313006.87942
     -3322.489       -2588.925
  20565230.451 4 -27603871.267 4 -21448942.32342  20565230.11744  20565232.82542
      1483.788        1156.205
  24699192.566 3  -2568790.876 3  -1967806.72341  24699191.81143  24699193.48341
      2081.523        1621.943
  23061497.463 3 -10402982.125 3  -8057223.81342  23061498.00343  23061500.70942
      2979.490        2321.676
  24045892.942 3  -3646485.224 3  -2785840.58941  24045893.51043  24045896.86441
      3676.633        2864.923
  21075383.588 4 -22764983.815 4 -17689014.91242  21075383.33244  21075386.02842
      -118.295         -92.182
  23172527.292 3 -12007968.231 3  -9333513.02742  23172526.51343  23172528.36442
     -2198.183       -1712.848
  25185888.859 3  -2777819.443 3  -2121075.23941  25185888.83443  25185891.49541
     -2666.921       -2078.109
  24712282.566 3  -1735023.969 3  -1305514.48741  24712281.87643  24712285.49741
      3679.080        2866.826
  24374715.590 3  -4736592.229 3  -3663504.66341  24374714.83143  24374718.06941
      1019.837         794.678
  21012519.776 4 -21377967.121 4 -16601609.13442  21012520.07144  21012522.54742
     -1120.075        -872.781
 04  2  2  1  5 45.0000000  0 11G13G 8G21G29G26G10G17G 2G28G 3G27
  23322493.243 3 -11054227.941 3  -8554959.50142  23322492.72143  23322495.33942
     -3325.461       -2591.229
  20561006.659 4 -27626065.725 4 -21466236.70142  20561006.54844  20561009.41742
      1475.414        1149.681
  24693261.055 3  -2599953.724 3  -1992089.43541  24693259.96243  24693262.03641
      2073.270        1615.529
  23052997.667 3 -10447651.229 3  -8092030.92442  23052997.49743  23052999.52642
      2976.409        2319.298
  24035402.267 3  -3701617.086 3  -2828800.48341  24035402.45243  24035403.96741
      3674.483        2863.238
  21075735.733 4 -22763133.681 4 -17687573.24742  21075735.12044  21075738.01942
      -128.373        -100.016
  23178813.233 3 -11974936.808 3  -9307774.24242  23178812.15243  23178815.06842
     -2205.863       -1718.858
  25193505.728 3  -2737789.903 3  -2089883.38941  25193505.61443  25193509.16241
     -2670.691       -2081.045
  24701782.070 3  -1790200.047 3  -1348508.81041  24701782.55443  24701784.92741
      3677.639        2865.693
  24371817.519 3  -4751824.719 3  -3675374.13041  24371816.89243  24371818.42541
      1010.701         787.569
  21015726.815 4 -21361115.806 4 -16588478.24442  21015726.69344  21015729.36642
     -1126.735        -877.974
 04  2  2  1  6  0.0000000  0 11G13G 8G21G29G26G10G17G 2G28G 3G27
  23331990.317 3 -11004321.720 3  -8516071.54142  23331989.87843  23331991.73842
     -3329.025       -2594.024
  20556807.557 4 -27648132.866 4 -21483431.87142  20556807.33944  20556809.87142
      1466.542        1142.754
  24687355.394 3  -2630993.789 3  -2016276.45541  24687355.62543  24687358.24441
      2064.590        1608.779
  23044506.302 3 -10492272.887 3  -8126801.04842  23044506.02643  23044508.50942
      2972.926        2316.577
  24024916.332 3  -3756717.337 3  -2871735.74641  24024917.09643  24024919.59841
      3672.015        2861.306
  21076117.516 4 -22761129.289 4 -17686011.38442  21076116.65644  21076119.23742
      -139.052        -108.362
  23185121.457 3 -11941785.059 3  -9281941.73542  23185120.27943  23185124.83342
     -2214.400       -1725.513
  25201134.691 3  -2697697.568 3  -2058642.62741  25201135.74843  25201138.25541
     -2675.676       -2084.946
  24691285.740 3  -1845356.660 3  -1391487.94741  24691285.61343  24691288.71641
      3676.170        2864.543
  24368944.364 3  -4766920.800 3  -3687137.29741  24368944.08943  24368945.45941
      1001.375         780.281
  21018952.596 4 -21344164.119 4 -16575269.13842  21018951.99544  21018955.06642
     -1134.055        -883.690
 04  2  2  1  6 15.0000000  0 11G13G 8G21G29G26G10G17G 2G28G 3G27
  23341496.460 3 -10954368.339 3  -8477146.83242  23341496.76543  23341497.62542
     -3331.711       -2596.158
  20552632.383 4 -27670072.795 4 -21500527.91042  20552632.11144  20552635.18342
      1458.571        1136.555
  24681473.042 3  -2661910.827 3  -2040367.67141  24681472.75143  24681472.33241
      2057.152        1602.981
  23036024.469 3 -10536846.972 3  -8161534.11642  23036024.28543  23036026.81742
      2970.298        2314.531
  24014437.045 3  -3811785.681 3  -2914646.14741  24014437.40043  24014439.63941
      3670.063        2859.789
  21076528.042 4 -22758970.826 4 -17684329.46542  21076527.44744  21076530.35542
      -148.927        -116.042
  23191451.566 3 -11908513.349 3  -9256015.73542  23191451.92643  23191455.59142
     -2221.860       -1731.335
  25208776.454 3  -2657542.817 3  -2027353.21641  25208775.20443  25208779.62941
     -2678.895       -2087.452
  24680794.198 3  -1900493.640 3  -1434451.78041  24680794.05543  24680797.35041
      3675.147        2863.748
  24366097.361 3  -4781880.207 3  -3698793.97141  24366097.76943  24366099.80141
       993.059         773.809
  21022196.929 4 -21327112.286 4 -16561981.99742  21022197.15244  21022200.09442
     -1140.024        -888.338
 04  2  2  1  6 30.0000000  0 11G13G 8G21G29G26G10G17G 2G28G 3G27
  23351011.223 3 -10904367.762 3  -8438185.34442  23351011.23143  23351013.93542
     -3335.406       -2599.008
  20548481.771 4 -27691885.060 4 -21517524.47542  20548481.49544  20548484.30642
      1449.363        1129.386
  24675611.878 3  -2692704.482 3  -2064362.75241  24675612.86043  24675614.44841
      2048.331        1596.104
  23027551.448 3 -10581373.188 3  -8196229.86742  23027550.82043  23027553.66542
      2966.229        2311.353
  24003963.837 3  -3866821.933 3  -2957531.56241  24003965.11043  24003966.16241
      3667.411        2857.716
  21076968.013 4 -22756658.305 4 -17682527.50042  21076967.62144  21076970.42242
      -159.895        -124.584
  23197806.528 3 -11875122.093 3  -9229996.56342  23197805.44743  23197809.12542
     -2230.417       -1737.969
  25216430.242 3  -2617325.762 3  -1996015.25241  25216428.47243  25216431.66941
     -2683.778       -2091.266
  24670306.043 3  -1955610.643 3  -1477400.05641  24670305.34543  24670309.69741
      3673.239        2862.268
  24363276.918 3  -4796702.870 3  -3710344.10041  24363277.25343  24363279.79341
       983.404         766.293
  21025461.374 4 -21309960.374 4 -16548616.87142  21025461.10044  21025463.67342
     -1147.212        -893.920
 04  2  2  1  6 45.0000000  0 11G13G 8G21G29G26G10G17G 2G28G 3G27
  23360534.819 3 -10854319.996 3  -8399187.10342  23360536.00843  23360535.95642
     -3337.770       -2600.837
  20544355.369 4 -27713569.691 4 -21534421.58342  20544354.76644  20544357.79642
      1441.811        1123.486
  24669776.078 3  -2723374.460 3  -2088261.45341  24669776.49743  24669779.35941
      2040.999        1590.387
  23019087.222 3 -10625851.311 3  -8230888.15242  23019087.16143  23019089.61942
      2963.988        2309.603
  23993497.304 3  -3921825.934 3  -3000391.82741  23993496.82843  23993500.53641
      3666.510        2857.020
  21077437.184 4 -22754191.682 4 -17680605.45442  21077436.73244  21077440.00342
      -169.056        -131.728
  23204183.103 3 -11841611.488 3  -9203884.40042  23204183.47843  23204186.47242
     -2237.772       -1743.710
  25224094.151 3  -2577046.590 3  -1964628.90441  25224093.89043  25224098.35341
     -2686.966       -2093.733
  24659821.363 3  -2010707.194 3  -1520332.40141  24659821.01643  24659823.92341
      3672.883        2861.992
  24360483.746 3  -4811388.550 3  -3721787.48441  24360483.01443  24360484.72841
       975.240         759.933
  21028744.064 4 -21292708.445 4 -16535173.80942  21028744.04544  21028746.66442
     -1153.103        -898.516
 04  2  2  1  7  0.0000000  0 11G13G 8G21G29G26G10G17G 2G28G 3G27
  23370068.036 3 -10804225.409 3  -8360152.36242  23370067.24643  23370070.21142
     -3341.268       -2603.560
  20540252.952 4 -27735126.546 4 -21551219.12642  20540252.67244  20540255.96642
      1432.974        1116.621
  24663963.253 3  -2753920.554 3  -2112063.60441  24663963.69343  24663964.30441
      2032.318        1583.636
  23010633.354 3 -10670281.270 3  -8265508.90642  23010633.16243  23010634.99642
      2960.322        2306.759
  23983036.951 3  -3976797.403 3  -3043226.73641  23983037.81643  23983038.11241
      3663.585        2854.734
  21077935.980 4 -22751570.904 4 -17678563.29242  21077935.39644  21077938.58142
      -179.836        -140.128
  23210582.924 3 -11807982.005 3  -9177679.60342  23210582.80343  23210585.51642
     -2245.921       -1750.080
  25231770.989 3  -2536705.690 3  -1933194.44741  25231770.34243  25231773.32241
     -2691.625       -2097.351
  24649341.055 3  -2065783.120 3  -1563248.66941  24649339.43243  24649342.60941
      3671.065        2860.570
  24357712.654 3  -4825937.114 3  -3733124.01741  24357713.30343  24357717.16641
       965.371         752.234
  21032046.322 4 -21275356.622 4 -16521652.90642  21032046.08144  21032048.68442
     -1160.083        -903.960
 04  2  2  1  7 15.0000000  0 12G24G13G 8G21G29G26G10G17G 2G28G 3G27
  25278611.318 3    106037.033 3
     -3370.663
  23379608.878 3 -10754084.199 3  -8321081.30742  23379610.54643  23379610.96042
     -3344.247       -2605.891
  20536175.383 4 -27756555.506 4 -21567917.01242  20536174.96644  20536177.97742
      1424.621        1110.102
  24658174.332 3  -2784342.556 3  -2135769.04941  24658173.74143  24658174.85141
      2024.446        1577.490
  23002187.456 3 -10714662.861 3  -8300091.97742  23002187.68443  23002188.89442
      2957.333        2304.422
  23972582.361 3  -4031736.133 3  -3086036.13141  23972581.90343  23972585.38541
      3661.862        2853.395
  21078464.170 4 -22748795.952 4 -17676400.99342  21078463.46444  21078466.44142
      -189.784        -147.877
  23217005.415 3 -11774233.853 3  -9151382.32942  23217004.92243  23217009.03042
     -2253.352       -1755.854
  25239458.805 3  -2496303.250 3  -1901712.04341  25239457.74243  25239462.75141
     -2695.373       -2100.282
  24638864.054 3  -2120838.154 3  -1606148.67641  24638863.03443  24638867.37441
      3670.126        2859.834
  24354971.410 3  -4840348.302 3  -3744353.51941  24354969.81643  24354974.32941
       956.939         745.669
  21035366.972 4 -21257905.187 4 -16508054.39142  21035366.65244  21035369.65542
     -1166.529        -908.975
 04  2  2  1  7 30.0000000  0 11G13G 8G21G29G26G10G17G 2G28G 3G27
  23389159.387 3 -10703896.388 3  -8281973.93142  23389159.93843  23389161.59842
     -3347.530       -2608.488
  20532122.150 4 -27777856.408 4 -21584515.10942  20532121.78744  20532124.61042
      1415.495        1102.974
  24652409.257 3  -2814640.126 3  -2159377.54641  24652408.74343  24652411.39341
      2015.402        1570.439
  22993750.666 3 -10758995.723 3  -8334637.05942  22993751.73143  22993752.40442
      2953.619        2301.488
  23962134.586 3  -4086641.738 3  -3128819.72841  23962134.67243  23962135.89841
      3659.143        2851.282
  21079021.869 4 -22745866.814 4 -17674118.55142  21079021.22144  21079024.16242
      -200.749        -156.436
  23223449.415 3 -11740367.369 3  -9124992.86142  23223448.57343  23223452.59742
     -2262.046       -1762.621
  25247159.847 3  -2455839.440 3  -1870181.82341  25247157.66443  25247162.35241
     -2699.669       -2103.630
  24628391.433 3  -2175871.846 3  -1649032.03041  24628391.16743  24628393.99441
      3668.099        2858.260
  24352255.011 3  -4854621.923 3  -3755475.84141  24352255.08643  24352257.16541
       946.484         737.517
  21038706.768 4 -21240353.996 4 -16494378.13842  21038706.77344  21038709.09642
     -1173.711        -914.577
 04  2  2  1  7 45.0000000  0 11G13G 8G21G29G26G10G17G 2G28G 3G27
  23398718.331 3 -10653662.311 3  -8242830.50542  23398718.68443  23398720.48142
     -3350.169       -2610.494
  20528092.981 4 -27799029.306 4 -21601013.46642  20528092.45044  20528095.36742
      1407.480        1096.742
  24646666.006 3  -2844813.038 3  -2182888.90241  24646667.46043  24646669.10541
      2007.493        1564.277
  22985323.074 3 -10803279.983 3  -8369144.27742  22985323.45243  22985325.95642
      2950.986        2299.490
  23951692.325 3  -4141514.324 3  -3171577.59041  23951692.33343  23951694.67141
      3657.251        2849.812
  21079608.368 4 -22742783.664 4 -17671716.09542  21079607.94144  21079610.54642
      -210.489        -164.013
  23229916.030 3 -11706383.042 3  -9098511.58842  23229915.73743  23229919.57342
     -2269.325       -1768.301
  25254871.180 3  -2415314.701 3  -1838604.10841  25254870.64343  25254874.51541
     -2703.588       -2106.698
  24617922.960 3  -2230884.078 3  -1691898.65241  24617922.46343  24617926.21541
      3667.173        2857.542
  24349567.037 3  -4868757.958 3  -3766490.94941  24349565.60143  24349568.90441
       937.831         730.781
  21042065.434 4 -21222703.520 4 -16480624.52042  21042065.59844  21042068.15242
     -1179.876        -919.383
 04  2  2  1  8  0.0000000  0 12G24G13G 8G21G29G26G10G17G 2G28G 3G27
  25307491.960 3    257807.714 3    150849.90741  25307492.36543  25307500.86841
     -3374.520       -2629.486
  23408286.415 3 -10603382.094 3  -8203651.13042  23408286.57743  23408289.28042
     -3353.351       -2612.979
  20524088.250 4 -27820073.929 4 -21617411.86942  20524088.13644  20524090.77842
      1398.680        1089.878
  24640949.015 3  -2874861.054 3  -2206302.93541  24640947.82043  24640950.41541
      1998.954        1557.625
  22976905.396 3 -10847515.269 3  -8403613.33042  22976906.18043  22976907.37842
      2947.424        2296.684
  23941256.443 3  -4196353.612 3  -3214309.49441  23941256.00143  23941259.51241
      3654.832        2847.931
  21080224.488 4 -22739546.320 4 -17669193.49242  21080224.02244  21080226.53942
      -220.980        -172.194
  23236406.479 3 -11672281.066 3  -9071938.62442  23236406.04943  23236409.52742
     -2277.282       -1774.492
  25262593.460 3  -2374729.182 3  -1806979.02341  25262593.38543  25262598.20441
     -2707.940       -2110.081
  24607458.458 3  -2285874.342 3  -1734748.13541  24607456.96743  24607461.47241
      3665.457        2856.189
  24346902.152 3  -4882756.169 3  -3777398.63741  24346902.37143  24346904.20941
       928.324         723.367
  21045443.263 4 -21204953.645 4 -16466793.45042  21045443.18944  21045446.03042
     -1186.697        -924.701
 04  2  2  1  8 15.0000000  0 12G24G13G 8G21G29G26G10G17G 2G28G 3G27
  25317125.933 3    308431.718 3    190297.21241  25317127.20443  25317133.20941
     -3375.232       -2630.040
  23417863.617 3 -10553055.845 3  -8164435.88942  23417863.73843  23417866.50042
     -3356.595       -2615.531
  20520108.033 4 -27840990.266 4 -21633710.30542  20520107.70044  20520110.27042
      1390.222        1083.287
  24635254.149 3  -2904783.980 3  -2229619.52241  24635253.67743  24635255.31941
      1990.577        1551.097
  22968497.887 3 -10891701.429 3  -8438044.11542  22968497.60543  22968499.23642
      2944.109        2294.114
  23930827.405 3  -4251159.289 3  -3257015.21041  23930827.79543  23930829.91341
      3652.291        2845.940
  21080869.931 4 -22736154.673 4 -17666550.65342  21080869.19944  21080872.17542
      -231.264        -180.198
  23242917.130 3 -11638061.802 3  -9045274.28242  23242917.76643  23242920.64742
     -2285.331       -1780.783
  25270329.205 3  -2334083.061 3  -1775306.72141  25270327.89943  25270331.41041
     -2711.435       -2112.796
  24596997.958 3  -2340842.317 3  -1777580.25841  24596998.40443  24597000.93041
      3663.763        2854.885
  24344263.668 3  -4896616.303 3  -3788198.71541  24344264.64643  24344267.36641
       919.343         716.369
  21048839.759 4 -21187104.618 4 -16452885.11642  21048839.65244  21048842.38142
     -1193.191        -929.761
 04  2  2  1  8 30.0000000  0 12G24G13G 8G21G29G26G10G17G 2G28G 3G27
  25326763.057 3    359071.918 3    229757.11341  25326762.40443  25326766.67241
     -3377.175       -2631.574
  23427449.338 3 -10502683.828 3  -8125184.97642  23427450.19743  23427451.45442
     -3360.399       -2618.520
  20516152.061 4 -27861778.145 4 -21649908.64642  20516151.74244  20516154.69242
      1380.774        1075.919
  24629585.270 3  -2934581.348 3  -2252838.26641  24629583.91543  24629585.69741
      1981.404        1543.937
  22960098.446 3 -10935838.254 3  -8472436.44542  22960098.82843  22960101.99442
      2940.059        2290.956
  23920405.326 3  -4305931.105 3  -3299694.54641  23920405.25243  23920406.96741
      3649.679        2843.899
  21081544.448 4 -22732608.806 4 -17663787.64842  21081543.83044  21081546.85342
      -242.286        -188.790
  23249451.349 3 -11603725.622 3  -9018518.81342  23249451.01943  23249454.92642
     -2293.647       -1787.261
  25278075.616 3  -2293376.664 3  -1743587.45141  25278074.66943  25278077.69741
     -2716.505       -2116.752
  24586542.800 3  -2395787.759 3  -1820394.84341  24586543.41443  24586545.81441
      3661.233        2852.897
  24341653.401 3  -4910338.180 3  -3798891.07441  24341652.36343  24341654.89741
       909.317         708.558
  21052255.208 4 -21169156.426 4 -16438899.50942  21052255.19544  21052257.69842
     -1200.684        -935.606
 04  2  2  1  8 45.0000000  0 12G24G13G 8G21G29G26G10G17G 2G28G 3G27
  25336403.426 3    409727.963 3    269229.33041  25336403.38943  25336408.24841
     -3376.698       -2631.176
  23437043.383 3 -10452266.325 3  -8085898.61842  23437043.46043  23437045.25342
     -3361.984       -2619.725
  20512220.718 4 -27882437.637 4 -21666006.94642  20512220.42944  20512223.53142
      1373.772        1070.468
  24623939.136 3  -2964253.077 3  -2275959.09941  24623938.34943  24623939.74441
      1974.622        1538.666
  22951709.435 3 -10979925.653 3  -8506790.25742  22951709.31743  22951710.92342
      2938.401        2289.662
  23909989.042 3  -4360668.990 3  -3342347.44141  23909988.69143  23909991.09741
      3648.507        2842.997
  21082248.516 4 -22728908.850 4 -17660904.57342  21082248.01144  21082250.80642
      -251.102        -195.673
  23256007.536 3 -11569272.999 3  -8991672.64942  23256007.73343  23256011.15442
     -2300.058       -1792.253
  25285833.045 3  -2252610.342 3  -1711821.49441  25285832.56643  25285836.09541
     -2718.874       -2118.605
  24576090.981 3  -2450710.440 3  -1863191.71141  24576091.45943  24576092.74941
      3661.337        2852.982
  24339067.792 3  -4923921.794 3  -3809475.71541  24339068.05143  24339071.12041
       901.831         702.724
  21055689.875 4 -21151109.390 4 -16424836.88642  21055689.70244  21055692.07242
     -1205.739        -939.538
 04  2  2  1  9  0.0000000  0 12G24G13G 8G21G29G26G10G17G 2G28G 3G27
  25346047.390 3    460399.607 3    308713.68141  25346045.22843  25346049.02741
     -3378.896       -2632.918
  23446645.589 3 -10401803.347 3  -8046576.83842  23446646.23043  23446647.41542
     -3365.853       -2622.769
  20508313.842 4 -27902968.379 4 -21682004.91742  20508313.50244  20508316.68142
      1364.354        1063.121
  24618315.486 3  -2993798.686 3  -2298981.65841  24618315.61943  24618318.06941
      1965.476        1531.530
  22943328.854 3 -11023963.293 3  -8541105.29842  22943329.63143  22943331.14742
      2934.148        2286.327
  23899578.514 3  -4415372.565 3  -3384973.59841  23899577.68143  23899581.46241
      3645.429        2840.591
  21082982.089 4 -22725054.623 4 -17657901.28242  21082981.33544  21082984.23442
      -262.166        -204.284
  23262586.738 3 -11534703.982 3  -8964735.76442  23262586.37343  23262588.70842
     -2308.702       -1798.993
  25293600.769 3  -2211784.151 3  -1680008.89441  25293600.50343  25293604.00241
     -2723.643       -2122.323
  24565644.056 3  -2505609.923 3  -1905970.50941  24565643.84343  24565646.29541
      3659.201        2851.323
  24336510.473 3  -4937366.853 3  -3819952.38641  24336509.32543  24336512.55941
       891.269         694.490
  21059142.679 4 -21132963.464 4 -16410697.20542  21059142.43644  21059144.93342
     -1213.162        -945.329
 04  2  2  1  9 15.0000000  0 12G24G13G 8G21G29G26G10G17G 2G28G 3G27
  25355692.600 3    511086.381 3    348209.84141  25355693.02743  25355700.10141
     -3379.638       -2633.467
  23456257.810 3 -10351295.144 3  -8007219.82142  23456258.79243  23456259.76242
     -3368.893       -2625.121
  20504431.688 4 -27923370.413 4 -21697902.60242  20504431.06444  20504434.22342
      1355.750        1056.427
  24612717.688 3  -3023218.083 3  -2321905.87241  24612717.95143  24612719.59041
      1956.824        1524.796
  22934958.834 3 -11067951.115 3  -8575381.51242  22934957.97143  22934960.80642
      2930.674        2283.661
  23889174.216 3  -4470041.740 3  -3427572.96441  23889174.85243  23889178.34641
      3642.924        2838.639
  21083744.907 4 -22721046.292 4 -17654777.91142  21083744.05144  21083746.98042
      -272.486        -212.321
  23269186.814 3 -11500019.005 3  -8937708.50442  23269185.87843  23269189.26942
     -2316.375       -1804.957
  25301382.227 3  -2170898.479 3  -1648149.96541  25301381.12643  25301385.74741
     -2727.876       -2125.606
  24555201.579 3  -2560486.022 3  -1948731.06341  24555201.59843  24555204.83241
      3657.560        2850.042
  24333977.452 3  -4950673.455 3  -3830321.15341  24333978.14843  24333981.69341
       882.390         687.573
  21062614.182 4 -21114718.890 4 -16396480.65842  21062614.21744  21062617.05142
     -1219.778        -950.473
 04  2  2  1  9 30.0000000  0 12G24G13G 8G21G29G26G10G17G 2G28G 3G27
  25365340.889 3    561787.856 3    387717.48441  25365343.16843  25365343.07541
     -3380.466       -2634.124
  23465877.283 3 -10300741.793 3  -7967827.61842  23465877.90743  23465881.43542
     -3371.972       -2627.501
  20500573.611 4 -27943643.633 4 -21713699.90942  20500573.11544  20500576.30642
      1347.160        1049.727
  24607144.556 3  -3052510.864 3  -2344731.42741  24607144.28943  24607144.96441
      1948.389        1518.228
  22926597.446 3 -11111888.843 3  -8609618.70042  22926597.72043  22926599.41142
      2927.213        2280.911
  23878777.148 3  -4524676.327 3  -3470145.36941  23878777.91443  23878782.12541
      3640.964        2837.109
  21084536.525 4 -22716883.787 4 -17651534.40642  21084536.16044  21084539.17442
      -282.733        -220.323
  23275808.733 3 -11465218.481 3  -8910591.20042  23275809.18043  23275811.61942
     -2324.326       -1811.160
  25309173.292 3  -2129953.629 3  -1616244.88841  25309172.15543  25309176.11441
     -2731.868       -2128.736
  24544763.318 3  -2615338.375 3  -1991473.10441  24544762.76943  24544766.36941
      3655.532        2848.460
  24331472.144 3  -4963841.229 3  -3840581.75341  24331472.04243  24331473.82341
       872.976         680.234
  21066105.045 4 -21096375.750 4 -16382187.29942  21066104.83244  21066107.61242
     -1226.285        -955.549
 04  2  2  1  9 45.0000000  0 12G24G13G 8G21G29G26G10G17G 2G28G 3G27
  25374989.739 3    612503.840 3    427236.45341  25374991.81043  25374997.94941
     -3381.736       -2635.101
  23475505.892 3 -10250143.448 3  -7928400.33642  23475505.85843  23475507.77942
     -3374.656       -2629.613
  20496740.079 4 -27963787.922 4 -21729396.74842  20496739.79144  20496742.95742
      1338.815        1043.237
  24601594.784 3  -3081676.922 3  -2367458.23041  24601594.63243  24601594.36641
      1940.553        1512.116
  22918244.602 3 -11155776.369 3  -8643816.75842  22918246.25043  22918247.96042
      2924.100        2278.490
  23868388.173 3  -4579276.015 3  -3512690.57041  23868389.11643  23868391.07541
      3638.963        2835.557
  21085358.323 4 -22712567.097 4 -17648170.75642  21085357.79244  21085360.80742
      -292.828        -228.176
  23282453.554 3 -11430302.753 3  -8883384.16742  23282453.90643  23282456.89142
     -2331.398       -1816.663
  25316976.653 3  -2088949.798 3  -1584293.84141  25316973.62543  25316975.99841
     -2735.771       -2131.770
  24534329.646 3  -2670166.573 3  -2034196.34141  24534329.15943  24534331.96941
      3654.416        2847.596
  24328992.815 3  -4976869.988 3  -3850734.04741  24328991.92143  24328995.39341
       864.084         673.317
  21069614.546 4 -21077934.164 4 -16367817.23242  21069614.29344  21069616.81942
     -1232.615        -960.489
 04  2  2  1 10  0.0000000  0 12G24G13G 8G21G29G26G10G17G 2G28G 3G27
  25384643.232 3    663233.918 3    466766.39941  25384646.34743  25384648.68841
     -3382.568       -2635.770
  23485142.414 3 -10199500.297 3  -7888938.15742  23485143.98043  23485144.21342
     -3377.719       -2631.995
  20492931.278 4 -27983803.207 4 -21744993.06542  20492931.03944  20492933.88842
      1330.210        1036.531
  24596067.507 3  -3110715.958 3  -2390086.05141  24596067.89243  24596067.05941
      1931.877        1505.359
  22909903.549 3 -11199613.409 3  -8677975.47942  22909904.00643  22909905.43942
      2921.064        2276.164
  23858004.236 3  -4633840.618 3  -3555208.43541  23858005.79643  23858007.96041
      3636.395        2833.553
  21086209.168 4 -22708096.398 4 -17644687.09942  21086208.50344  21086211.60542
      -303.016        -236.125
  23289119.350 3 -11395272.200 3  -8856087.66942  23289118.61643  23289121.15442
     -2338.923       -1822.533
  25324790.694 3  -2047887.277 3  -1552297.06041  25324789.89043  25324793.53441
     -2738.985       -2134.280
  24523901.220 3  -2724970.496 3  -2076900.67641  24523900.41543  24523903.26641
      3652.841        2846.366
  24326540.330 3  -4989759.680 3  -3860777.97841  24326540.50143  24326542.22541
       854.492         665.837
  21073142.634 4 -21059394.232 4 -16353370.53342  21073142.26544  21073144.69542
     -1239.201        -965.604
 04  2  2  1 10 15.0000000  0 12G24G13G 8G21G29G26G10G17G 2G28G 3G27
  25394298.752 3    713977.717 3    506307.03141  25394299.65843  25394308.39341
     -3383.402       -2636.425
  23494788.484 3 -10148812.562 3  -7849441.22542  23494788.59643  23494790.64242
     -3380.567       -2634.205
  20489147.211 4 -28003689.349 4 -21760488.75042  20489146.94744  20489150.19542
      1321.579        1029.804
  24590566.249 3  -3139627.737 3  -2412614.72041  24590565.88643  24590566.37941
      1923.075        1498.506
  22901571.121 3 -11243399.870 3  -8712094.78742  22901571.07343  22901573.60342
      2917.627        2273.501
  23847628.566 3  -4688369.940 3  -3597698.82741  23847629.01943  23847631.07741
      3634.608        2832.167
  21087089.210 4 -22703471.509 4 -17641083.29142  21087088.62844  21087091.72042
      -313.358        -244.177
  23295808.196 3 -11360126.997 3  -8828701.83442  23295807.84143  23295810.27642
     -2346.999       -1828.827
  25332615.609 3  -2006766.284 3  -1520254.72341  25332614.58243  25332618.17041
     -2743.110       -2137.490
  24513478.175 3  -2779749.734 3  -2119585.78341  24513477.29243  24513479.18741
      3651.272        2845.150
  24324112.727 3  -5002510.080 3  -3870713.35041  24324113.38643  24324116.63941
       845.713         658.999
  21076689.133 4 -21040756.172 4 -16338847.36842  21076689.05244  21076691.36342
     -1245.713        -970.675
 04  2  2  1 10 30.0000000  0 12G24G13G 8G21G29G26G10G17G 2G28G 3G27
  25403958.658 3    764735.086 3    545858.21341  25403959.28643  25403965.73641
     -3384.650       -2637.378
  23504442.765 3 -10098080.432 3  -7809909.70542  23504443.42843  23504444.55042
     -3383.756       -2636.663
  20485387.639 4 -28023446.158 4 -21775883.66142  20485387.32144  20485390.26542
      1312.658        1022.844
  24585087.608 3  -3168411.924 3  -2435043.97141  24585087.17143  24585089.62541
      1914.659        1491.937
  22893248.647 3 -11287135.466 3  -8746174.46242  22893248.74043  22893250.89742
      2913.893        2270.564
  23837259.870 3  -4742863.576 3  -3640161.42141  23837259.98143  23837260.06341
      3631.447        2829.696
